[
  {
    "index": 1,
    "name": "Livewire (Marina Bay Sands)",
    "address": "2 Bayfront Avenue, #01-01 The Shoppes at Marina Bay Sands",
    "postal": "018972",
    "latitude": 1.283322499,
    "longitude": 103.8576291
  },
  {
    "index": 2,
    "name": "Livewire (Resorts World Sentosa)",
    "address": "26 Sentosa Gateway #B1-208",
    "postal": "098138",
    "latitude": 1.256289426,
    "longitude": 103.8199347
  },
  {
    "index": 3,
    "name": "Livewire (Singapore Pools)",
    "address": "210 Middle Rd #01-01",
    "postal": "188994",
    "latitude": 1.301089963,
    "longitude": 103.8513153
  },
  {
    "index": 4,
    "name": "SportsBuzz@Kranji",
    "address": "1 Turf Club Avenue, Singapore Turf Club, Singapore Racecourse",
    "postal": "738078",
    "latitude": 1.422225074,
    "longitude": 103.76249109999999
  },
  {
    "index": 5,
    "name": "Singapore Pools - Main Branch",
    "address": "210 Middle Rd #01-01",
    "postal": "188994",
    "latitude": 1.301089963,
    "longitude": 103.8513153
  },
  {
    "index": 6,
    "name": "Singapore Pools 64 Circuit Rd Branch",
    "address": "Blk 64 Circuit Rd #01-355",
    "postal": "370064",
    "latitude": 1.326984045,
    "longitude": 103.8871484
  },
  {
    "index": 7,
    "name": "Singapore Pools 88 Circuit Rd Branch",
    "address": "Blk 88 Circuit Rd #01-961",
    "postal": "370088",
    "latitude": 1.32354066,
    "longitude": 103.8858517
  },
  {
    "index": 8,
    "name": "Singapore Pools Anchorvale Rd Branch",
    "address": "Blk 308 Anchorvale Rd #01-05",
    "postal": "540308",
    "latitude": 1.389558485,
    "longitude": 103.8864267
  },
  {
    "index": 9,
    "name": "Singapore Pools Ang Mo Kio N2 Branch",
    "address": "Blk 202 Ang Mo Kio Ave 3 #01-1662/1664",
    "postal": "560202",
    "latitude": 1.36844644,
    "longitude": 103.8445163
  },
  {
    "index": 10,
    "name": "Singapore Pools Ang Mo Kio N2A Branch",
    "address": "Blk 226A Ang Mo Kio Ave 1 #01-625",
    "postal": "561226",
    "latitude": 1.367494056,
    "longitude": 103.83928449999999
  },
  {
    "index": 11,
    "name": "Singapore Pools Ang Mo Kio N4 Branch",
    "address": "Blk 447 Ang Mo Kio Ave 10 #01-1685",
    "postal": "560447",
    "latitude": 1.3674790140000002,
    "longitude": 103.8559671
  },
  {
    "index": 12,
    "name": "Singapore Pools Ang Mo Kio N6 Branch",
    "address": "Blk 630 Ang Mo Kio Ave 4 #01-968",
    "postal": "560630",
    "latitude": 1.380541389,
    "longitude": 103.84106829999999
  },
  {
    "index": 13,
    "name": "Singapore Pools Ang Mo Kio N7 Branch",
    "address": "Blk 726 Ang Mo Kio Ave 6 #01-4158",
    "postal": "560726",
    "latitude": 1.372783585,
    "longitude": 103.8464483
  },
  {
    "index": 14,
    "name": "Singapore Pools Balestier Rd Branch",
    "address": "Blk 2 Balestier Rd #01-641",
    "postal": "320002",
    "latitude": 1.32589621,
    "longitude": 103.8429355
  },
  {
    "index": 15,
    "name": "Singapore Pools Bedok North Branch",
    "address": "Blk 509 Bedok North St 3 #01-129",
    "postal": "460509",
    "latitude": 1.333175419,
    "longitude": 103.931265
  },
  {
    "index": 16,
    "name": "Singapore Pools Bedok Town Centre Branch",
    "address": "Blk 204 Bedok North Street 1 #01-415",
    "postal": "460204",
    "latitude": 1.326359095,
    "longitude": 103.92999590000001
  },
  {
    "index": 17,
    "name": "Singapore Pools Bencoolen Branch",
    "address": "180 Bencoolen Street, The Bencoolen #01-59",
    "postal": "189646",
    "latitude": 1.301632318,
    "longitude": 103.8533426
  },
  {
    "index": 18,
    "name": "Singapore Pools Beo Crescent Branch",
    "address": "Blk 36 Beo Crescent #01-45",
    "postal": "160036",
    "latitude": 1.288300791,
    "longitude": 103.8271804
  },
  {
    "index": 19,
    "name": "Singapore Pools Bishan N1 Branch",
    "address": "Blk 152 Bishan St 11 #01-211",
    "postal": "570152",
    "latitude": 1.345657203,
    "longitude": 103.8546414
  },
  {
    "index": 20,
    "name": "Singapore Pools Bishan N2 Branch",
    "address": "Blk 279 Bishan St 24 #01-52",
    "postal": "570279",
    "latitude": 1.3572228309999999,
    "longitude": 103.8437853
  },
  {
    "index": 21,
    "name": "Singapore Pools Bukit Batok Central Branch",
    "address": "Blk 642 Bukit Batok Central #01-56",
    "postal": "650642",
    "latitude": 1.349006479,
    "longitude": 103.7517067
  },
  {
    "index": 22,
    "name": "Singapore Pools Bukit Batok N3 Branch",
    "address": "Blk 324 Bukit Batok St 33 #01-47",
    "postal": "650324",
    "latitude": 1.3621647280000002,
    "longitude": 103.7476281
  },
  {
    "index": 23,
    "name": "Singapore Pools Bukit Gombak Branch",
    "address": "Blk 374 Bukit Batok St 31 #01-170",
    "postal": "650374",
    "latitude": 1.357982911,
    "longitude": 103.75073640000001
  },
  {
    "index": 24,
    "name": "Singapore Pools Bukit Panjang Branch",
    "address": "Blk 257 Bangkit Rd #01-49",
    "postal": "670257",
    "latitude": 1.378508736,
    "longitude": 103.7732123
  },
  {
    "index": 25,
    "name": "Singapore Pools Canberra Link Branch",
    "address": "Blk 505 Canberra Link #01-02",
    "postal": "750505",
    "latitude": 1.450262019,
    "longitude": 103.8225347
  },
  {
    "index": 26,
    "name": "Singapore Pools Chai Chee Branch",
    "address": "Blk 36 Chai Chee Ave #01-167",
    "postal": "461036",
    "latitude": 1.325341025,
    "longitude": 103.92543540000001
  },
  {
    "index": 27,
    "name": "Singapore Pools Changi Rd Branch",
    "address": "324K Changi Rd",
    "postal": "419799",
    "latitude": 1.317932205,
    "longitude": 103.90808630000001
  },
  {
    "index": 28,
    "name": "Singapore Pools Cheong Chin Nam Rd Branch",
    "address": "5 Cheong Chin Nam Rd",
    "postal": "599730",
    "latitude": 1.342489115,
    "longitude": 103.77523740000001
  },
  {
    "index": 29,
    "name": "Singapore Pools Chin Swee Branch",
    "address": "Blk 52 Chin Swee Rd #01-65/69",
    "postal": "160052",
    "latitude": 1.287082783,
    "longitude": 103.8415801
  },
  {
    "index": 30,
    "name": "Singapore Pools Chinatown Point Branch",
    "address": "133 New Bridge Road, Chinatown Point #01-36",
    "postal": "059413",
    "latitude": 1.285338949,
    "longitude": 103.8450156
  },
  {
    "index": 31,
    "name": "Singapore Pools Clementi N3 Branch",
    "address": "Blk 325 Clementi Ave 5 #01-145",
    "postal": "120325",
    "latitude": 1.315096685,
    "longitude": 103.76681740000001
  },
  {
    "index": 32,
    "name": "Singapore Pools Clementi N7 Branch",
    "address": "Blk 722 Clementi West St 2 #01-164",
    "postal": "120722",
    "latitude": 1.3029795990000002,
    "longitude": 103.76371400000001
  },
  {
    "index": 33,
    "name": "Singapore Pools Clementi Town Centre Branch",
    "address": "Blk 446 Clementi Ave 3 #01-183",
    "postal": "120446",
    "latitude": 1.312513057,
    "longitude": 103.7649278
  },
  {
    "index": 34,
    "name": "Singapore Pools Commonwealth Crescent Branch",
    "address": "Blk 116 Commonwealth Crescent #01-135",
    "postal": "140116",
    "latitude": 1.3069720870000001,
    "longitude": 103.80002890000002
  },
  {
    "index": 35,
    "name": "Singapore Pools Empress Rd Branch",
    "address": "Blk 8 Empress Rd #01-35",
    "postal": "260008",
    "latitude": 1.316411901,
    "longitude": 103.8053738
  },
  {
    "index": 36,
    "name": "Singapore Pools Everton Park Branch",
    "address": "Blk 7 Everton Park #01-15",
    "postal": "080007",
    "latitude": 1.276924352,
    "longitude": 103.8386795
  },
  {
    "index": 37,
    "name": "Singapore Pools Fajar Rd Branch",
    "address": "Blk 445 Fajar Rd Fajar Shopping Centre #02-540",
    "postal": "670445",
    "latitude": 1.3835802030000002,
    "longitude": 103.7707748
  },
  {
    "index": 38,
    "name": "Singapore Pools Funan Branch",
    "address": "107 North Bridge Road #B1-02",
    "postal": "179105",
    "latitude": 1.2912440059999999,
    "longitude": 103.8499848
  },
  {
    "index": 39,
    "name": "Singapore Pools Gek Poh Shopping Centre",
    "address": "Blk 762 Jurong West Street 75 Gek Poh Shopping Centre #01-338",
    "postal": "640762",
    "latitude": 1.348741647,
    "longitude": 103.69773959999999
  },
  {
    "index": 40,
    "name": "Singapore Pools Geylang Bahru Branch",
    "address": "Blk 57 Geylang Bahru #01-3503",
    "postal": "330057",
    "latitude": 1.3235378070000001,
    "longitude": 103.8691478
  },
  {
    "index": 41,
    "name": "Singapore Pools Ghim Moh Branch",
    "address": "Blk 21 Ghim Moh Rd #01-161",
    "postal": "270021",
    "latitude": 1.310103026,
    "longitude": 103.788546
  },
  {
    "index": 42,
    "name": "Singapore Pools Great World City Branch",
    "address": "1 Kim Seng Promenade #B1-127 Great World City",
    "postal": "237994",
    "latitude": 1.293154929,
    "longitude": 103.831928
  },
  {
    "index": 43,
    "name": "Singapore Pools Holland Drive Branch",
    "address": "Blk 46 Holland Dr #01-371/373",
    "postal": "270046",
    "latitude": 1.308789494,
    "longitude": 103.79269559999999
  },
  {
    "index": 44,
    "name": "Singapore Pools Hougang N1 Branch",
    "address": "Blk 106 Hougang Ave 1 #01-1209/1211",
    "postal": "530106",
    "latitude": 1.353702971,
    "longitude": 103.8906808
  },
  {
    "index": 45,
    "name": "Singapore Pools Hougang N2 Branch",
    "address": "Blk 211 Hougang St 21 #01-309",
    "postal": "530211",
    "latitude": 1.359622892,
    "longitude": 103.88771729999999
  },
  {
    "index": 46,
    "name": "Singapore Pools Hougang N3 Branch",
    "address": "Blk 322 Hougang Ave 5 #01-70",
    "postal": "530322",
    "latitude": 1.367098554,
    "longitude": 103.8969787
  },
  {
    "index": 47,
    "name": "Singapore Pools IMM Branch",
    "address": "2 Jurong East St 21 #02-63, IMM Building",
    "postal": "609601",
    "latitude": 1.334875283,
    "longitude": 103.7468947
  },
  {
    "index": 48,
    "name": "Singapore Pools Jln Batu Branch",
    "address": "Blk 7 Jln Batu #01-99",
    "postal": "431007",
    "latitude": 1.302370026,
    "longitude": 103.8835964
  },
  {
    "index": 49,
    "name": "Singapore Pools Jln Tiga Branch",
    "address": "Blk 43 Jln Tiga #01-08",
    "postal": "390043",
    "latitude": 1.308133686,
    "longitude": 103.8847295
  },
  {
    "index": 50,
    "name": "Singapore Pools Jurong East Branch",
    "address": "Blk 351 Jurong East St 31 #01-93",
    "postal": "600351",
    "latitude": 1.344832356,
    "longitude": 103.7307783
  },
  {
    "index": 51,
    "name": "Singapore Pools Jurong West N2 Branch",
    "address": "Blk 276 Jurong West St 25 #01-05",
    "postal": "640276",
    "latitude": 1.3536097269999998,
    "longitude": 103.70373070000001
  },
  {
    "index": 52,
    "name": "Singapore Pools Jurong West N4 Branch",
    "address": "Blk 498 Jurong West St 41 #01-472",
    "postal": "640498",
    "latitude": 1.348333358,
    "longitude": 103.72430729999999
  },
  {
    "index": 53,
    "name": "Singapore Pools Jurong West N5 Branch",
    "address": "Blk 508 Jurong West St 52 #01-166",
    "postal": "640508",
    "latitude": 1.3487271809999999,
    "longitude": 103.71871540000001
  },
  {
    "index": 54,
    "name": "Singapore Pools King George's Ave Branch",
    "address": "Blk 803 King George's Ave #01-200/202",
    "postal": "200803",
    "latitude": 1.308365264,
    "longitude": 103.86091280000001
  },
  {
    "index": 55,
    "name": "Singapore Pools Lengkok Bahru Branch",
    "address": "Blk 63B Lengkok Bahru #01-364",
    "postal": "152063",
    "latitude": 1.289075068,
    "longitude": 103.8153184
  },
  {
    "index": 56,
    "name": "Singapore Pools Lor 1 Toa Payoh Branch",
    "address": "Blk 111 Lor 1 Toa Payoh #01-354",
    "postal": "310111",
    "latitude": 1.3412371379999999,
    "longitude": 103.8453061
  },
  {
    "index": 57,
    "name": "Singapore Pools Lor 25A Geylang Branch",
    "address": "62 Lor 25A Geylang",
    "postal": "388251",
    "latitude": 1.31549499,
    "longitude": 103.8832561
  },
  {
    "index": 58,
    "name": "Singapore Pools Lor 4 Toa Payoh Branch",
    "address": "Blk 85 Lor 4 Toa Payoh #01-340",
    "postal": "310085",
    "latitude": 1.336285362,
    "longitude": 103.84842859999999
  },
  {
    "index": 59,
    "name": "Singapore Pools Lor 8 Toa Payoh Branch",
    "address": "Blk 212 Lor 8 Toa Payoh #01-39",
    "postal": "310212",
    "latitude": 1.3406429359999998,
    "longitude": 103.8543345
  },
  {
    "index": 60,
    "name": "Singapore Pools Lorong Lew Lian Branch",
    "address": "Blk 2 Lor Lew Lian #01-46",
    "postal": "531002",
    "latitude": 1.350607956,
    "longitude": 103.8756801
  },
  {
    "index": 61,
    "name": "Singapore Pools Lucky Plaza Branch",
    "address": "304 Orchard Rd Lucky Plaza #B1-119",
    "postal": "238863",
    "latitude": 1.30446379,
    "longitude": 103.83400520000001
  },
  {
    "index": 62,
    "name": "Singapore Pools New Upper Changi Branch",
    "address": "Blk 26 New Upp Changi Rd #01-666/668",
    "postal": "462026",
    "latitude": 1.323338363,
    "longitude": 103.9342073
  },
  {
    "index": 63,
    "name": "Singapore Pools Pasir Ris N2 Branch",
    "address": "Blk 259 Pasir Ris St 21 Loyang Point #02-29",
    "postal": "510259",
    "latitude": 1.36645364,
    "longitude": 103.9645985
  },
  {
    "index": 64,
    "name": "Singapore Pools Pasir Ris N7 Branch",
    "address": "Blk 735 Pasir Ris St 72 Pasir Ris West Plaza #01-358",
    "postal": "510735",
    "latitude": 1.379435257,
    "longitude": 103.93639499999999
  },
  {
    "index": 65,
    "name": "Singapore Pools Peace Centre Branch",
    "address": "1 Sophia Rd Peace Centre #01-24/25",
    "postal": "228149",
    "latitude": 1.301070538,
    "longitude": 103.8491763
  },
  {
    "index": 66,
    "name": "Singapore Pools People's Park Centre",
    "address": "101 Upp Cross St, People's Park Centre, #01-12",
    "postal": "058357",
    "latitude": 1.2857701000000001,
    "longitude": 103.8439801
  },
  {
    "index": 67,
    "name": "Singapore Pools Potong Pasir Branch",
    "address": "Blk 148 Potong Pasir Ave 1 #01-73",
    "postal": "350148",
    "latitude": 1.33235436,
    "longitude": 103.86777430000001
  },
  {
    "index": 68,
    "name": "Singapore Pools Serangoon Central Branch",
    "address": "Blk 254 Serangoon Central Dr #01-209",
    "postal": "550254",
    "latitude": 1.354062299,
    "longitude": 103.87121690000001
  },
  {
    "index": 69,
    "name": "Singapore Pools Siglap Branch",
    "address": "697B East Coast Road",
    "postal": "459060",
    "latitude": 1.312056825,
    "longitude": 103.92217109999999
  },
  {
    "index": 70,
    "name": "Singapore Pools Silat Ave Branch",
    "address": "Blk 150 Silat Avenue #01-42",
    "postal": "160150",
    "latitude": 1.2770770679999999,
    "longitude": 103.83142590000001
  },
  {
    "index": 71,
    "name": "Singapore Pools Sim Lim Square Branch",
    "address": "1 Rochor Canal Rd Sim Lim Square #B1-37",
    "postal": "188504",
    "latitude": 1.303022984,
    "longitude": 103.8530387
  },
  {
    "index": 72,
    "name": "Singapore Pools Suntec City",
    "address": "3 Temasek Boulevard #B1-143 Suntec City Mall",
    "postal": "038983",
    "latitude": 1.294846149,
    "longitude": 103.8577052
  },
  {
    "index": 73,
    "name": "Singapore Pools Tampines Mart Branch",
    "address": "11 Tampines St 32 Tampines Mart #01-03",
    "postal": "529287",
    "latitude": 1.354549443,
    "longitude": 103.95990019999999
  },
  {
    "index": 74,
    "name": "Singapore Pools Tampines N4 Branch",
    "address": "Blk 481 Tampines St 44 #01-277",
    "postal": "520481",
    "latitude": 1.361629564,
    "longitude": 103.95325109999999
  },
  {
    "index": 75,
    "name": "Singapore Pools Tanjong Pagar Branch",
    "address": "Blk 1 Tanjong Pagar Plaza #01-49/50",
    "postal": "082001",
    "latitude": 1.275687028,
    "longitude": 103.84243359999999
  },
  {
    "index": 76,
    "name": "Singapore Pools Teban Gardens Branch",
    "address": "Blk 37 Teban Gardens Rd #01-308",
    "postal": "600037",
    "latitude": 1.320531436,
    "longitude": 103.7426522
  },
  {
    "index": 77,
    "name": "Singapore Pools Teck Whye Branch",
    "address": "Blk 141 Teck Whye Lane #01-271",
    "postal": "680141",
    "latitude": 1.3804116130000001,
    "longitude": 103.75257990000001
  },
  {
    "index": 78,
    "name": "Singapore Pools Telok Blangah Crescent Branch",
    "address": "Blk 6 Telok Blangah Crescent #01-418",
    "postal": "090006",
    "latitude": 1.278140813,
    "longitude": 103.818484
  },
  {
    "index": 79,
    "name": "Singapore Pools Upp Boon Keng Branch",
    "address": "Blk 18 Upp Boon Keng Rd #01-1149/1151",
    "postal": "380018",
    "latitude": 1.314803515,
    "longitude": 103.8723015
  },
  {
    "index": 80,
    "name": "Singapore Pools Whampoa Dr Branch",
    "address": "Blk 88 Whampoa Dr #01-857",
    "postal": "320088",
    "latitude": 1.32324727,
    "longitude": 103.85517159999999
  },
  {
    "index": 81,
    "name": "Singapore Pools Woodlands 888 Plaza Branch",
    "address": "Blk 888 Woodlands Dr 50 888 Plaza #01-711",
    "postal": "730888",
    "latitude": 1.43767919,
    "longitude": 103.79513670000001
  },
  {
    "index": 82,
    "name": "Singapore Pools Woodlands N3 Branch",
    "address": "Blk 305 Woodlands St 31 #01-77",
    "postal": "730305",
    "latitude": 1.4303614580000001,
    "longitude": 103.7741024
  },
  {
    "index": 83,
    "name": "Singapore Pools Woodlands N5 Branch",
    "address": "Blk 548 Woodlands Dr 44 Vista Point #02-04",
    "postal": "730548",
    "latitude": 1.4308011390000002,
    "longitude": 103.7941048
  },
  {
    "index": 84,
    "name": "Singapore Pools Woodlands N8 Branch",
    "address": "Blk 883 Woodlands St 82 #02-468",
    "postal": "730883",
    "latitude": 1.442855482,
    "longitude": 103.7909651
  },
  {
    "index": 85,
    "name": "Singapore Pools Yishun N1 Branch",
    "address": "Blk 101 Yishun Ave 5 #01-37",
    "postal": "760101",
    "latitude": 1.430535754,
    "longitude": 103.8276677
  },
  {
    "index": 86,
    "name": "Singapore Pools Yishun N2 Branch",
    "address": "Blk 256 Yishun Ring Rd #01-1001",
    "postal": "760256",
    "latitude": 1.434093421,
    "longitude": 103.8399792
  },
  {
    "index": 87,
    "name": "Singapore Pools Yishun N4 Branch",
    "address": "Blk 415 Yishun Ave 11 #01-311",
    "postal": "760415",
    "latitude": 1.4244426369999998,
    "longitude": 103.84587009999998
  },
  {
    "index": 88,
    "name": "Singapore Pools Yishun N7 Branch",
    "address": "Blk 761 Yishun St 72 #01-340",
    "postal": "760761",
    "latitude": 1.425398425,
    "longitude": 103.833259
  },
  {
    "index": 89,
    "name": "7- Eleven Yishun Ave 5",
    "address": "Blk 102 Yishun Ave 5 #01-137",
    "postal": "760102",
    "latitude": 1.430618304,
    "longitude": 103.828763
  },
  {
    "index": 90,
    "name": "7-Eleven Bedok North",
    "address": "Blk 123 Bedok North St 2 #01-158",
    "postal": "460123",
    "latitude": 1.329198687,
    "longitude": 103.9373433
  },
  {
    "index": 91,
    "name": "7-Eleven Bukit Batok West",
    "address": "Blk 132 Bukit Batok West Ave 6 #01-304",
    "postal": "650132",
    "latitude": 1.350652438,
    "longitude": 103.74562519999999
  },
  {
    "index": 92,
    "name": "7-Eleven Changi",
    "address": "38-A Changi Rd",
    "postal": "419701",
    "latitude": 1.316217668,
    "longitude": 103.89883
  },
  {
    "index": 93,
    "name": "7-Eleven Chua Chu Kang Drive",
    "address": "Blk 689B Chua Chu Kang Dr #01-306",
    "postal": "682689",
    "latitude": 1.4031348280000002,
    "longitude": 103.7497931
  },
  {
    "index": 94,
    "name": "7-Eleven Circular Rd",
    "address": "58 Circular Rd #01-01",
    "postal": "049413",
    "latitude": 1.2860694670000001,
    "longitude": 103.8492446
  },
  {
    "index": 95,
    "name": "7-Eleven Clementi Street 11",
    "address": "Blk 109 Clementi Street 11 #01-15",
    "postal": "120109",
    "latitude": 1.321980677,
    "longitude": 103.77077609999999
  },
  {
    "index": 96,
    "name": "7-Eleven Erskine Road",
    "address": "7 Erskine Rd",
    "postal": "069320",
    "latitude": 1.281213724,
    "longitude": 103.8451628
  },
  {
    "index": 97,
    "name": "7-Eleven Eunos Crescent",
    "address": "Blk 1A Eunos Crescent #01-2469/2471",
    "postal": "401001",
    "latitude": 1.321290305,
    "longitude": 103.9027278
  },
  {
    "index": 98,
    "name": "7-Eleven Foch Road",
    "address": "27 Foch Rd Hoa Nam Building #01-07/08",
    "postal": "209264",
    "latitude": 1.312722783,
    "longitude": 103.859959
  },
  {
    "index": 99,
    "name": "7-Eleven Jalan Leban",
    "address": "6 Jln Leban Sembawang Hill Estates",
    "postal": "577549",
    "latitude": 1.3713720759999999,
    "longitude": 103.8290543
  },
  {
    "index": 100,
    "name": "7-Eleven McCallum Street",
    "address": "3 McCallum Street",
    "postal": "069044",
    "latitude": 1.279684758,
    "longitude": 103.84757629999999
  },
  {
    "index": 101,
    "name": "7-Eleven Owen Road",
    "address": "Blk 45 Owen Rd #01-295",
    "postal": "210045",
    "latitude": 1.315595676,
    "longitude": 103.8508255
  },
  {
    "index": 102,
    "name": "7-Eleven Plaza Singapura",
    "address": "68 Orchard Rd Plaza Singapura #01-51",
    "postal": "238839",
    "latitude": 1.300820718,
    "longitude": 103.8450673
  },
  {
    "index": 103,
    "name": "7-Eleven Sin Ming",
    "address": "244H Upp Thomson Rd",
    "postal": "574369",
    "latitude": 1.353496931,
    "longitude": 103.83458879999999
  },
  {
    "index": 104,
    "name": "7-Eleven Sixth Avenue",
    "address": "6 Sixth Ave",
    "postal": "276472",
    "latitude": 1.33109924,
    "longitude": 103.79511459999999
  },
  {
    "index": 105,
    "name": "7-Eleven Tai Thong Crescent",
    "address": "27 Tai Thong Crescent",
    "postal": "347857",
    "latitude": 1.329082397,
    "longitude": 103.869753
  },
  {
    "index": 106,
    "name": "7-Eleven Upp Thomson",
    "address": "912 Upp Thomson Rd",
    "postal": "787113",
    "latitude": 1.39896559,
    "longitude": 103.8181344
  },
  {
    "index": 107,
    "name": "A P Mini Mart",
    "address": "Blk 234 Lor 8 Toa Payoh #01-286",
    "postal": "310234",
    "latitude": 1.338601486,
    "longitude": 103.85791409999999
  },
  {
    "index": 108,
    "name": "A P Minimart Bedok Reservoir",
    "address": "Blk 121 Bedok Reservoir Road, #01-200",
    "postal": "470121",
    "latitude": 1.331305178,
    "longitude": 103.9099922
  },
  {
    "index": 109,
    "name": "Afro Asia Co Pte Ltd",
    "address": "Blk 604, Yishun Street 61, #01-323",
    "postal": "760604",
    "latitude": 1.4217134809999998,
    "longitude": 103.83554529999999
  },
  {
    "index": 110,
    "name": "B.H. Mini Mart",
    "address": "Blk 137 Potong Pasir Ave 3 #01-142",
    "postal": "350137",
    "latitude": 1.3338575940000001,
    "longitude": 103.8658454
  },
  {
    "index": 111,
    "name": "Cheers Bedok North",
    "address": "Blk 539 Bedok North St 3 #01-625",
    "postal": "460539",
    "latitude": 1.331313866,
    "longitude": 103.9253073
  },
  {
    "index": 112,
    "name": "Cheers Changi Village",
    "address": "Blk 4 Changi Village Rd #01-2074",
    "postal": "500004",
    "latitude": 1.389096356,
    "longitude": 103.9874628
  },
  {
    "index": 113,
    "name": "Cheers Haig Rd",
    "address": "Blk 12 Haig Rd #01-333/335",
    "postal": "430012",
    "latitude": 1.315614681,
    "longitude": 103.8961295
  },
  {
    "index": 114,
    "name": "Cheers Harbourfront",
    "address": "1 Maritime Square Harbourfront Centre #01-82",
    "postal": "099253",
    "latitude": 1.264088893,
    "longitude": 103.8202088
  },
  {
    "index": 115,
    "name": "Cheers Hougang Ave 3",
    "address": "Blk 23 Hougang Ave 3 #01-281",
    "postal": "530023",
    "latitude": 1.364866664,
    "longitude": 103.890728
  },
  {
    "index": 116,
    "name": "Cheers Hougang Central",
    "address": "Blk 810 Hougang Central #01-214",
    "postal": "530810",
    "latitude": 1.371587441,
    "longitude": 103.89336999999999
  },
  {
    "index": 117,
    "name": "Cheers New Upper Changi Road",
    "address": "Blk 59 New Upp Changi Rd #01-1272",
    "postal": "461059",
    "latitude": 1.324058986,
    "longitude": 103.94069559999998
  },
  {
    "index": 118,
    "name": "Cheng Chew Wah Agency",
    "address": "20 Frankel Terrace",
    "postal": "458022",
    "latitude": 1.319080828,
    "longitude": 103.9144967
  },
  {
    "index": 119,
    "name": "Cheng Chew Wah Agency (Bedok South)",
    "address": "Blk 17 Bedok South Road, #01-583",
    "postal": "460017",
    "latitude": 1.32014883,
    "longitude": 103.9355635
  },
  {
    "index": 120,
    "name": "Cheng Tai Boon Beng",
    "address": "150 Orchard Road #01-63 Orchard Plaza",
    "postal": "238841",
    "latitude": 1.30126533,
    "longitude": 103.84115179999999
  },
  {
    "index": 121,
    "name": "Chng Siow Eng Agency",
    "address": "Blk 625 Elias Rd Elias Mall #01-314",
    "postal": "510625",
    "latitude": 1.37860239,
    "longitude": 103.9419782
  },
  {
    "index": 122,
    "name": "Chong Hoe Tong",
    "address": "Blk 21 Lor 7 Toa Payoh #01-290",
    "postal": "310021",
    "latitude": 1.335448182,
    "longitude": 103.8574959
  },
  {
    "index": 123,
    "name": "Chop Yeo Thong Heng",
    "address": "Blk 83 MacPherson Lane #01-249",
    "postal": "360083",
    "latitude": 1.331549855,
    "longitude": 103.8855179
  },
  {
    "index": 124,
    "name": "Chop Yeo Thong Heng (International Plaza)",
    "address": "10 Anson Road #01-68 International Plaza",
    "postal": "079903",
    "latitude": 1.276012226,
    "longitude": 103.8458978
  },
  {
    "index": 125,
    "name": "Chua Hong Kim Trading",
    "address": "Blk 237 Serangoon Ave 3 #01-108",
    "postal": "550237",
    "latitude": 1.3538119830000002,
    "longitude": 103.87013459999999
  },
  {
    "index": 126,
    "name": "Chua Yan Kee",
    "address": "Blk 49 Tanglin Halt Road #01-349",
    "postal": "142049",
    "latitude": 1.3004269309999998,
    "longitude": 103.7973598
  },
  {
    "index": 127,
    "name": "Chuan Hao Departmental Store",
    "address": "Blk 19A Dover Crescent #01-04",
    "postal": "131019",
    "latitude": 1.307353802,
    "longitude": 103.7845484
  },
  {
    "index": 128,
    "name": "Clifford Gift Shop",
    "address": "Blk 532 Ang Mo Kio Ave 10 #01-2459",
    "postal": "560532",
    "latitude": 1.373808515,
    "longitude": 103.85459420000001
  },
  {
    "index": 129,
    "name": "Cold Storage Compass One",
    "address": "1 Sengkang Square, #B1-25, Compass One",
    "postal": "545078",
    "latitude": 1.392054305,
    "longitude": 103.89506390000001
  },
  {
    "index": 130,
    "name": "Cold Storage Northpoint",
    "address": "930 Yishun Ave 2 #B1-09/12 Northpoint Shopping Centre",
    "postal": "769098",
    "latitude": 1.429698486,
    "longitude": 103.8357765
  },
  {
    "index": 131,
    "name": "Cold Storage UE Square",
    "address": "81 Clemenceau Ave UE Square #02-18",
    "postal": "239917",
    "latitude": 1.292164661,
    "longitude": 103.8426015
  },
  {
    "index": 132,
    "name": "Dawn Florist",
    "address": "21 Hougang St 51 Hougang Green Shopping Mall #01-04A",
    "postal": "538719",
    "latitude": 1.379317835,
    "longitude": 103.88784709999999
  },
  {
    "index": 133,
    "name": "Delisia Agency Pte Ltd",
    "address": "149 Rochor Rd Fu Lu Shou Complex #B1-26",
    "postal": "188425",
    "latitude": 1.301487069,
    "longitude": 103.8545685
  },
  {
    "index": 134,
    "name": "Everbright  Services",
    "address": "Blk 108 Depot Road #01-17",
    "postal": "100108",
    "latitude": 1.280966807,
    "longitude": 103.8102982
  },
  {
    "index": 135,
    "name": "Evercool Engineering",
    "address": "Blk 95 Lor 4 Toa Payoh #01-50",
    "postal": "310095",
    "latitude": 1.338890722,
    "longitude": 103.84899329999999
  },
  {
    "index": 136,
    "name": "Everstream Trading",
    "address": "Blk 283 Bukit Batok East Avenue 3 #01-281",
    "postal": "650283",
    "latitude": 1.346943658,
    "longitude": 103.75753940000001
  },
  {
    "index": 137,
    "name": "FairPrice Xpress MacPherson",
    "address": "110 MacPherson Rd, Exxon-Mobil",
    "postal": "348501",
    "latitude": 1.328692065,
    "longitude": 103.87218890000001
  },
  {
    "index": 138,
    "name": "Fatt Chye Heng Trading",
    "address": "Blk 7 Hougang Ave 3 #01-48",
    "postal": "530007",
    "latitude": 1.362327219,
    "longitude": 103.8935108
  },
  {
    "index": 139,
    "name": "Gerk Chwee Trading",
    "address": "4 Kensington Park Rd",
    "postal": "557256",
    "latitude": 1.364688857,
    "longitude": 103.86603530000001
  },
  {
    "index": 140,
    "name": "Giant Beauty World",
    "address": "144 Upper Bukit Timah Road Beauty World Centre #B1-01",
    "postal": "588177",
    "latitude": 1.342412642,
    "longitude": 103.7765394
  },
  {
    "index": 141,
    "name": "Giant Buangkok Cresent",
    "address": "Blk 982 Buangkok Cresent #01-01",
    "postal": "530982",
    "latitude": 1.380850355,
    "longitude": 103.87930909999999
  },
  {
    "index": 142,
    "name": "Giant Compassvale Bow",
    "address": "Blk 266 Compassvale Bow #01-02",
    "postal": "540266",
    "latitude": 1.3818777130000002,
    "longitude": 103.89703990000001
  },
  {
    "index": 143,
    "name": "Giant Edgefield",
    "address": "Blk 671 Edgefield Plains #02-01",
    "postal": "820671",
    "latitude": 1.40566048,
    "longitude": 103.9119913
  },
  {
    "index": 144,
    "name": "Giant Greenridge",
    "address": "Blk 524A Jelapang Rd Greenridge Shopping Centre #03-13/18",
    "postal": "671524",
    "latitude": 1.385405693,
    "longitude": 103.7662285
  },
  {
    "index": 145,
    "name": "Giant Paya Lebar Square",
    "address": "60 Paya Lebar Road, Paya Lebar Square #B1-01/05",
    "postal": "409051",
    "latitude": 1.31881487,
    "longitude": 103.89258079999999
  },
  {
    "index": 146,
    "name": "Giant Pioneer Mall",
    "address": "Blk 638 Jurong West Street 61 Pioneer Mall #03-01",
    "postal": "640638",
    "latitude": 1.34172919,
    "longitude": 103.69722370000001
  },
  {
    "index": 147,
    "name": "Giant Sembawang Shopping Centre",
    "address": "604 Sembawang Road Sembawang Shopping Centre #B1-25",
    "postal": "758459",
    "latitude": 1.4418530790000001,
    "longitude": 103.8249704
  },
  {
    "index": 148,
    "name": "Giant Sunshine Place",
    "address": "475 Choa Chu Kang Ave 3 Sunshine Place #01-01/10",
    "postal": "680475",
    "latitude": 1.3779719330000002,
    "longitude": 103.73904209999999
  },
  {
    "index": 149,
    "name": "Goh Geok Kwee (Bukit Merah)",
    "address": "Blk 124 Bukit Merah Lane 1 #01-148",
    "postal": "150124",
    "latitude": 1.285823318,
    "longitude": 103.8035322
  },
  {
    "index": 150,
    "name": "Goh Geok Kwee Agency",
    "address": "Blk 61 Telok Blangah Heights #01-107",
    "postal": "100061",
    "latitude": 1.2757050079999999,
    "longitude": 103.8120071
  },
  {
    "index": 151,
    "name": "Golden Lagoon Trading",
    "address": "Blk 136 Marsiling Road #01-2182",
    "postal": "730136",
    "latitude": 1.4383214569999998,
    "longitude": 103.777752
  },
  {
    "index": 152,
    "name": "Hao Mart Geylang Lor 24",
    "address": "448 & 450 Geylang Road",
    "postal": "389407",
    "latitude": 1.313174608,
    "longitude": 103.88364659999999
  },
  {
    "index": 153,
    "name": "Hin Teck Leong Trading Company",
    "address": "Blk 74 Whampoa Drive #01-342",
    "postal": "320074",
    "latitude": 1.324715797,
    "longitude": 103.85775290000001
  },
  {
    "index": 154,
    "name": "Hin Teck Leong Trading Company",
    "address": "Blk 640 Rowell Rd #01-68",
    "postal": "200640",
    "latitude": 1.307435479,
    "longitude": 103.85471390000001
  },
  {
    "index": 155,
    "name": "Hock Soon Ann",
    "address": "Block 73 Bedok South Ave 3 #01-454",
    "postal": "460073",
    "latitude": 1.319838031,
    "longitude": 103.94397140000001
  },
  {
    "index": 156,
    "name": "Ichido Kopitiam City",
    "address": "Block 277C Compassvale Link #01-13 (Unit 2B)",
    "postal": "543277",
    "latitude": 1.38233699,
    "longitude": 103.8936078
  },
  {
    "index": 157,
    "name": "Jake Merchandise Associates",
    "address": "Blk 503 Tampines Central 1 #01-283",
    "postal": "520503",
    "latitude": 1.3558033569999999,
    "longitude": 103.94510290000001
  },
  {
    "index": 158,
    "name": "Kim Chwee Trading",
    "address": "Blk 256 Jurong East Street 24 #01-385",
    "postal": "600256",
    "latitude": 1.3441652730000002,
    "longitude": 103.73826340000001
  },
  {
    "index": 159,
    "name": "Kis Store",
    "address": "3 Pickering Street (South Bridge Road) #01-49",
    "postal": "048660",
    "latitude": 1.284367997,
    "longitude": 103.8473638
  },
  {
    "index": 160,
    "name": "Kwek Lee Eng Agency",
    "address": "200 Jln Sultan Textile Centre #01-29",
    "postal": "199018",
    "latitude": 1.303961585,
    "longitude": 103.8615614
  },
  {
    "index": 161,
    "name": "Laura's Gifts",
    "address": "Blk 442 Pasir Ris Dr 6 #01-42",
    "postal": "510442",
    "latitude": 1.368932887,
    "longitude": 103.9579517
  },
  {
    "index": 162,
    "name": "Lee Eng Trading Store",
    "address": "Blk 201B Tampines St 21 #01-1083",
    "postal": "522201",
    "latitude": 1.3534531580000002,
    "longitude": 103.9530099
  },
  {
    "index": 163,
    "name": "Lee Wah TV & Electric Co",
    "address": "623 Geylang Rd",
    "postal": "389561",
    "latitude": 1.314342628,
    "longitude": 103.8874223
  },
  {
    "index": 164,
    "name": "Li Li Cheng Supermarket (Punggol) Pte Ltd",
    "address": "Blk 273C Punggol Place #01-884",
    "postal": "823273",
    "latitude": 1.4023030140000001,
    "longitude": 103.90126240000001
  },
  {
    "index": 165,
    "name": "Li Thoe Trading",
    "address": "Blk 119 Aljunied Ave 2 #01-78",
    "postal": "380119",
    "latitude": 1.320128873,
    "longitude": 103.88605809999999
  },
  {
    "index": 166,
    "name": "Lim Heng Ee",
    "address": "Blk 16 Upp Boon Keng Rd #01-1113",
    "postal": "380016",
    "latitude": 1.315431758,
    "longitude": 103.87165159999999
  },
  {
    "index": 167,
    "name": "Lucky Hill",
    "address": "Blk 112 Bukit Purmei Road #01-209",
    "postal": "090112",
    "latitude": 1.2745285259999999,
    "longitude": 103.8259329
  },
  {
    "index": 168,
    "name": "Mee Lee Cheong Pte Ltd",
    "address": "Blk 139 Tampines St 11 #01-88",
    "postal": "521139",
    "latitude": 1.34616074,
    "longitude": 103.94450920000001
  },
  {
    "index": 169,
    "name": "Metro Woodlands",
    "address": "1 Woodlands Square Causeway Point #01-18/19",
    "postal": "738099",
    "latitude": 1.4360886769999999,
    "longitude": 103.78601
  },
  {
    "index": 170,
    "name": "Nalayanee Trading Enterprise",
    "address": "127 Upp Paya Lebar Rd",
    "postal": "534839",
    "latitude": 1.338437596,
    "longitude": 103.8864371
  },
  {
    "index": 171,
    "name": "Nan Huat Wine Store",
    "address": "Blk 513 Bishan St 13 #01-508",
    "postal": "570513",
    "latitude": 1.3494663390000001,
    "longitude": 103.8494673
  },
  {
    "index": 172,
    "name": "Nel's Store",
    "address": "Blk 741 Bedok Reservoir Rd #01-3073",
    "postal": "470741",
    "latitude": 1.337730888,
    "longitude": 103.92227209999999
  },
  {
    "index": 173,
    "name": "Ng Nam Thye Trading",
    "address": "Blk 399 Yung Sheng Road #01-07 Taman Jurong Shopping Centre",
    "postal": "610399",
    "latitude": 1.334665446,
    "longitude": 103.7206855
  },
  {
    "index": 174,
    "name": "Ng Nam Thye Trading - Big Mac Centre",
    "address": "51 Ang Mo Kio Avenue 3 #01-01B",
    "postal": "569922",
    "latitude": 1.36931518,
    "longitude": 103.84715390000001
  },
  {
    "index": 175,
    "name": "Ng Teo Guan Self Service",
    "address": "Blk 301 Ubi Ave 1 #01-251",
    "postal": "400301",
    "latitude": 1.330688025,
    "longitude": 103.901953
  },
  {
    "index": 176,
    "name": "NTUC Finest Seletar Mall",
    "address": "33 Sengkang West Avenue 4 #B2-24",
    "postal": "797653",
    "latitude": 1.391393061,
    "longitude": 103.87606770000001
  },
  {
    "index": 177,
    "name": "NTUC FP  Yew Tee",
    "address": "21, 23 & 25 Choa Chu Kang North 6 #B1-01 to 07 Yew Tee Point",
    "postal": "689715",
    "latitude": 1.3975350690000001,
    "longitude": 103.7474052
  },
  {
    "index": 178,
    "name": "NTUC FP Ang Mo Kio Hypermarket",
    "address": "53 Ang Mo Kio Ave 3 Ang Mo Kio Hub #B2-26",
    "postal": "569933",
    "latitude": 1.369255114,
    "longitude": 103.8484641
  },
  {
    "index": 179,
    "name": "NTUC FP Bedok North St 1",
    "address": "Blk 212 Bedok North St 1 #01-147",
    "postal": "460212",
    "latitude": 1.325940692,
    "longitude": 103.93164
  },
  {
    "index": 180,
    "name": "NTUC FP Bedok North St 4",
    "address": "Blk 89 Bedok North St 4 #01-77/79",
    "postal": "460089",
    "latitude": 1.332334683,
    "longitude": 103.9380513
  },
  {
    "index": 181,
    "name": "NTUC FP Bishan St 13",
    "address": "Blk 510 Bishan St 13 #01-01 & 02-01",
    "postal": "570510",
    "latitude": 1.348888439,
    "longitude": 103.849692
  },
  {
    "index": 182,
    "name": "NTUC FP Boon Lay",
    "address": "Blk 221 Boon Lay Place Boon Lay Shopping Complex #02-200",
    "postal": "640221",
    "latitude": 1.346348193,
    "longitude": 103.7124293
  },
  {
    "index": 183,
    "name": "NTUC FP Bukit Batok MRT Station",
    "address": "10 Bukit Batok Central Bukit Batok MRT Station #01-08",
    "postal": "659958",
    "latitude": 1.349033312,
    "longitude": 103.7495665
  },
  {
    "index": 184,
    "name": "NTUC FP Bukit Merah",
    "address": "Blk 166 Bukit Merah Central #02-3531",
    "postal": "150166",
    "latitude": 1.283092626,
    "longitude": 103.8176672
  },
  {
    "index": 185,
    "name": "NTUC FP Bukit Panjang Plaza",
    "address": "1 Jelebu Road #01-15 & #02-20 Bukit Panjang Plaza",
    "postal": "677743",
    "latitude": 1.379882914,
    "longitude": 103.76437779999999
  },
  {
    "index": 186,
    "name": "NTUC FP Bukit Timah Plaza",
    "address": "1 Jalan Anak Bukit Bukit Timah Plaza #B1-01",
    "postal": "588996",
    "latitude": 1.3386567759999999,
    "longitude": 103.7785605
  },
  {
    "index": 187,
    "name": "NTUC FP Changi Business Park Hypermarket",
    "address": "8 Changi Business Park Ave 1 #01-51 & #02-51",
    "postal": "486018",
    "latitude": 1.334832071,
    "longitude": 103.9638937
  },
  {
    "index": 188,
    "name": "NTUC FP Clementi Avenue 2",
    "address": "Blk 352 Clementi Avenue 2 #01-141/143",
    "postal": "120352",
    "latitude": 1.3142786020000001,
    "longitude": 103.77135059999999
  },
  {
    "index": 189,
    "name": "NTUC FP Clementi Avenue 3",
    "address": "Blk 451 Clementi Avenue 3 #01-307",
    "postal": "120451",
    "latitude": 1.312482985,
    "longitude": 103.76547679999999
  },
  {
    "index": 190,
    "name": "NTUC FP Coronation",
    "address": "587 Bukit Timah Rd Coronation Shopping Plaza #01-01",
    "postal": "269707",
    "latitude": 1.323824765,
    "longitude": 103.81001640000001
  },
  {
    "index": 191,
    "name": "NTUC FP Dawson Place",
    "address": "Blk 57 Dawson Road #01-07 Dawson Place",
    "postal": "142057",
    "latitude": 1.292702527,
    "longitude": 103.8109718
  },
  {
    "index": 192,
    "name": "NTUC FP Downtown East",
    "address": "#02-127, E Hub Downtown East, 1 Pasir Ris Close",
    "postal": "519599",
    "latitude": 1.3791271790000001,
    "longitude": 103.9554448
  },
  {
    "index": 193,
    "name": "NTUC FP Eastpoint Mall",
    "address": "3 Simei St 6 East Point Mall #05-01",
    "postal": "528833",
    "latitude": 1.342706189,
    "longitude": 103.9530245
  },
  {
    "index": 194,
    "name": "NTUC FP Havelock Road",
    "address": "Blk 50 Havelock Road #01-755",
    "postal": "160050",
    "latitude": 1.289778139,
    "longitude": 103.82679370000001
  },
  {
    "index": 195,
    "name": "NTUC FP Hillion Mall",
    "address": "17 Petir Road, Hillion Mall, #B2-67",
    "postal": "678278",
    "latitude": 1.378498681,
    "longitude": 103.76302290000001
  },
  {
    "index": 196,
    "name": "NTUC FP Hougang Mall",
    "address": "90 Hougang Ave 10 NTUC Hougang Mall #B1-07",
    "postal": "538766",
    "latitude": 1.372483087,
    "longitude": 103.8937881
  },
  {
    "index": 197,
    "name": "NTUC FP Hougang St 21",
    "address": "Blk 202 Hougang St 21 #01-00",
    "postal": "530202",
    "latitude": 1.3575861169999999,
    "longitude": 103.8840493
  },
  {
    "index": 198,
    "name": "NTUC FP Jem Hypermart",
    "address": "50 Jurong Gateway Road #B1-21/22",
    "postal": "608549",
    "latitude": 1.33255233,
    "longitude": 103.7432622
  },
  {
    "index": 199,
    "name": "NTUC FP Jurong East",
    "address": "Blk 135 Jurong East Street 13 #01-337",
    "postal": "600135",
    "latitude": 1.333825407,
    "longitude": 103.7396769
  },
  {
    "index": 200,
    "name": "NTUC FP Jurong Point",
    "address": "1 Jurong West Central 2 Jurong Point #B1-09",
    "postal": "648886",
    "latitude": 1.34040038,
    "longitude": 103.70667409999999
  },
  {
    "index": 201,
    "name": "NTUC FP Jurong Point Hypermart",
    "address": "63 Jurong West Central 3 #03-01 Jurong Point Shopping Centre",
    "postal": "648331",
    "latitude": 1.33931504,
    "longitude": 103.70535100000001
  },
  {
    "index": 202,
    "name": "NTUC FP Kallang Bahru",
    "address": "Blk 71 Kallang Bahru #01-529",
    "postal": "330071",
    "latitude": 1.320992942,
    "longitude": 103.87039
  },
  {
    "index": 203,
    "name": "NTUC FP Kallang Wave Mall",
    "address": "1 Stadium Place Level 1, 01-29 Kallang Wave Mall",
    "postal": "397628",
    "latitude": 1.303843272,
    "longitude": 103.8727507
  },
  {
    "index": 204,
    "name": "NTUC FP Killiney Rd",
    "address": "131 Killiney Rd CGH Building #01-01/02/03",
    "postal": "239571",
    "latitude": 1.297275314,
    "longitude": 103.8385339
  },
  {
    "index": 205,
    "name": "NTUC FP Limbang Shopping Centre",
    "address": "Blk 533 Choa Chu Kang St 51 Limbang Shopping Centre #01-11",
    "postal": "680533",
    "latitude": 1.3920738869999998,
    "longitude": 103.7430996
  },
  {
    "index": 206,
    "name": "NTUC FP Lot 1 Shoppers Mall",
    "address": "21 Choa Chu Kang Ave 4 Lot 1 Shoppers Mall #B1-05",
    "postal": "689812",
    "latitude": 1.385111549,
    "longitude": 103.7450362
  },
  {
    "index": 207,
    "name": "NTUC FP Marine Parade",
    "address": "6 Marine Parade Central",
    "postal": "449411",
    "latitude": 1.3013470759999999,
    "longitude": 103.9071836
  },
  {
    "index": 208,
    "name": "NTUC FP Marsiling MRT Station",
    "address": "71 Woodlands Ave 3 Marsiling MRT Station #01-01",
    "postal": "739044",
    "latitude": 1.432521149,
    "longitude": 103.77407459999999
  },
  {
    "index": 209,
    "name": "NTUC FP New Upper Changi",
    "address": "Blk 57 New Upp Changi Rd #01-1334/1338",
    "postal": "461057",
    "latitude": 1.324245542,
    "longitude": 103.9415687
  },
  {
    "index": 210,
    "name": "NTUC FP Pasir Ris White Sands",
    "address": "1 Pasir Ris Central St 3 White Sands #B1-10",
    "postal": "518457",
    "latitude": 1.372398981,
    "longitude": 103.94974920000001
  },
  {
    "index": 211,
    "name": "NTUC FP Paya Lebar Quarter",
    "address": "10 Paya Lebar Road, #B2-09 Paya Lebar Quarter",
    "postal": "409057",
    "latitude": 1.317482311,
    "longitude": 103.8928322
  },
  {
    "index": 212,
    "name": "NTUC FP Punggol Oasis",
    "address": "681 Punggol Drive #B1-01 Oasis Terraces",
    "postal": "820681",
    "latitude": 1.402634601,
    "longitude": 103.91327059999999
  },
  {
    "index": 213,
    "name": "NTUC FP Punggol Plaza",
    "address": "Blk 168 Punggol Field Rd Punggol Plaza #03-01",
    "postal": "820168",
    "latitude": 1.3942562980000002,
    "longitude": 103.9130435
  },
  {
    "index": 214,
    "name": "NTUC FP Rivervale Mall",
    "address": "11 Rivervale Crescent Rivervale Mall #03-01",
    "postal": "545082",
    "latitude": 1.39250411,
    "longitude": 103.9044837
  },
  {
    "index": 215,
    "name": "NTUC FP Sengkang East",
    "address": "Blk 279 Sengkang East Ave #01-06",
    "postal": "540279",
    "latitude": 1.386218355,
    "longitude": 103.8929955
  },
  {
    "index": 216,
    "name": "NTUC FP Senja",
    "address": "Blk 628 Senja Rd Senja Grand #01-01",
    "postal": "670628",
    "latitude": 1.385096025,
    "longitude": 103.7602184
  },
  {
    "index": 217,
    "name": "NTUC FP Serangoon Central Hypermart",
    "address": "23 Serangoon Central #03-42 NEX",
    "postal": "556083",
    "latitude": 1.350438181,
    "longitude": 103.8717045
  },
  {
    "index": 218,
    "name": "NTUC FP Serangoon North",
    "address": "Blk 152B Serangoon North Ave 1 #01-384",
    "postal": "552152",
    "latitude": 1.369799404,
    "longitude": 103.8730358
  },
  {
    "index": 219,
    "name": "NTUC FP Sun Plaza",
    "address": "30 Sembawang Drive #B1-01/02",
    "postal": "757713",
    "latitude": 1.448231135,
    "longitude": 103.8195237
  },
  {
    "index": 220,
    "name": "NTUC FP Tai Seng",
    "address": "18 Tai Seng Street, Mapletree 18 #B1-13",
    "postal": "539775",
    "latitude": 1.336356497,
    "longitude": 103.8887158
  },
  {
    "index": 221,
    "name": "NTUC FP Tampines Mall",
    "address": "4 Tampines Central 5 Tampines Mall #B1-12",
    "postal": "529510",
    "latitude": 1.3525802519999999,
    "longitude": 103.94469620000001
  },
  {
    "index": 222,
    "name": "NTUC FP Tampines St 11",
    "address": "Blk 107 Tampines St 11 #01-353/359",
    "postal": "521107",
    "latitude": 1.3483642180000002,
    "longitude": 103.94815870000001
  },
  {
    "index": 223,
    "name": "NTUC FP Tampines St 44",
    "address": "Blk 475 Tampines St 44 #01-145",
    "postal": "520475",
    "latitude": 1.3603233190000001,
    "longitude": 103.9531296
  },
  {
    "index": 224,
    "name": "NTUC FP Tampines Street  83",
    "address": "Blk 866A #01-K1 Tampines St 83",
    "postal": "521866",
    "latitude": 1.3554217730000002,
    "longitude": 103.9343152
  },
  {
    "index": 225,
    "name": "NTUC FP Tanjong Pagar",
    "address": "Blk 5 Tanjong Pagar Rd Tanjong Pagar Plaza #01-01",
    "postal": "081005",
    "latitude": 1.27624052,
    "longitude": 103.8430061
  },
  {
    "index": 226,
    "name": "NTUC FP Telok Blangah",
    "address": "Blk 78A Telok Blangah Street 32 #01-01",
    "postal": "101078",
    "latitude": 1.273387515,
    "longitude": 103.8089806
  },
  {
    "index": 227,
    "name": "NTUC FP Thomson Plaza",
    "address": "301 Upp Thomson Rd Thomson Plaza #03-25/31",
    "postal": "574408",
    "latitude": 1.355028857,
    "longitude": 103.8310533
  },
  {
    "index": 228,
    "name": "NTUC FP Tiong Bahru Plaza",
    "address": "302 Tiong Bahru Road Tiong Bahru Plaza #B1-01/02",
    "postal": "168732",
    "latitude": 1.286331772,
    "longitude": 103.8275508
  },
  {
    "index": 229,
    "name": "NTUC FP Toa Payoh",
    "address": "Blk 192 Lor 4 Toa Payoh #02-674",
    "postal": "310192",
    "latitude": 1.3316681479999999,
    "longitude": 103.8504872
  },
  {
    "index": 230,
    "name": "NTUC FP Toa Payoh HDB Centre",
    "address": "Blk 500 Lor 6 Toa Payoh HDB Centre #01-33",
    "postal": "310500",
    "latitude": 1.333013684,
    "longitude": 103.84706820000001
  },
  {
    "index": 231,
    "name": "NTUC FP VivoCity",
    "address": "1 Harbourfront Walk, #01-23 Vivo City",
    "postal": "098585",
    "latitude": 1.264304765,
    "longitude": 103.82230859999999
  },
  {
    "index": 232,
    "name": "NTUC FP Warehouse Club",
    "address": "1 Joo Koon Circle #03-21 Fairprice Hub",
    "postal": "629117",
    "latitude": 1.325617641,
    "longitude": 103.67841059999999
  },
  {
    "index": 233,
    "name": "NTUC FP Woodgrove",
    "address": "30 Woodlands Ave 1 The Woodgrove #01-11",
    "postal": "739065",
    "latitude": 1.429402782,
    "longitude": 103.78132540000001
  },
  {
    "index": 234,
    "name": "NTUC FP Woodlands Civic Centre",
    "address": "900 South Woodlands Dr, #B1-01",
    "postal": "730900",
    "latitude": 1.43496647,
    "longitude": 103.7868574
  },
  {
    "index": 235,
    "name": "NTUC FP Yishun",
    "address": "301 Yishun Ave 2 Yishun MRT Station #01-02",
    "postal": "769093",
    "latitude": 1.429443085,
    "longitude": 103.83500500000001
  },
  {
    "index": 236,
    "name": "NTUC FP Yishun Ring Rd",
    "address": "Blk 849 Yishun Ring Rd #01-3701/3703",
    "postal": "760849",
    "latitude": 1.4169604980000001,
    "longitude": 103.8353478
  },
  {
    "index": 237,
    "name": "NTUC FP Yung Kuang",
    "address": "Blk 63-66 Yung Kuang Road #01-119/02-119",
    "postal": "610063",
    "latitude": 1.332213982,
    "longitude": 103.72269159999999
  },
  {
    "index": 238,
    "name": "OCN (Singapore) Pte Ltd",
    "address": "Blk 501 West Coast Drive #01-266",
    "postal": "120501",
    "latitude": 1.312312548,
    "longitude": 103.7593125
  },
  {
    "index": 239,
    "name": "Ong Eng Siang Trading",
    "address": "Blk 71 Seng Poh Road #01-43",
    "postal": "160071",
    "latitude": 1.284246552,
    "longitude": 103.8325036
  },
  {
    "index": 240,
    "name": "Overseas Emporium (Pte) Ltd",
    "address": "1 Park Rd People's Park Complex #02-70",
    "postal": "059108",
    "latitude": 1.284128626,
    "longitude": 103.8425848
  },
  {
    "index": 241,
    "name": "Papillon Florist Pte Ltd",
    "address": "Blk 133 Jalan Bukit Merah #01-1520",
    "postal": "160133",
    "latitude": 1.279550933,
    "longitude": 103.82740090000001
  },
  {
    "index": 242,
    "name": "PFG Framing & Trading",
    "address": "Blk 960 Jurong West Street 92 #01-182",
    "postal": "640960",
    "latitude": 1.341385312,
    "longitude": 103.69145959999999
  },
  {
    "index": 243,
    "name": "Pinthely Floral Centre",
    "address": "5001 Beach Road #02-35 Golden Mile Complex",
    "postal": "199588",
    "latitude": 1.3027712059999998,
    "longitude": 103.8651721
  },
  {
    "index": 244,
    "name": "Precise Optics",
    "address": "111 North Bridge Road, #02-03 Peninsula Plaza",
    "postal": "179098",
    "latitude": 1.292322484,
    "longitude": 103.85080450000001
  },
  {
    "index": 245,
    "name": "Premier Security Co-operative Ltd",
    "address": "Blk 555 Ang Mo Kio Avenue 10 #01-1966",
    "postal": "560555",
    "latitude": 1.371196664,
    "longitude": 103.857024
  },
  {
    "index": 246,
    "name": "Prime Chai Chee",
    "address": "25A Chai Chee Rd #01-459",
    "postal": "461025",
    "latitude": 1.323289599,
    "longitude": 103.92414959999999
  },
  {
    "index": 247,
    "name": "Prime Compassvale St",
    "address": "Blk 263 Compassvale St #01-01",
    "postal": "540263",
    "latitude": 1.394848165,
    "longitude": 103.89604229999999
  },
  {
    "index": 248,
    "name": "Prime Hougang",
    "address": "Blk 159A Hougang St 11 #01-01",
    "postal": "531159",
    "latitude": 1.3518933659999999,
    "longitude": 103.87944449999999
  },
  {
    "index": 249,
    "name": "Prime Keat Hong",
    "address": "Blk 253 Choa Chu Kang Avenue 1 #B1-07/10 Keat Hong Shopping Centre",
    "postal": "680253",
    "latitude": 1.377439635,
    "longitude": 103.7443832
  },
  {
    "index": 250,
    "name": "Prime Mahota Century Square",
    "address": "2 Tampines Central 5 #B1-08 Century Square",
    "postal": "529509",
    "latitude": 1.35227804,
    "longitude": 103.9437277
  },
  {
    "index": 251,
    "name": "Prime Punggol Field",
    "address": "Blk 108 Punggol Field #01-02",
    "postal": "820108",
    "latitude": 1.396498616,
    "longitude": 103.9088663
  },
  {
    "index": 252,
    "name": "Prime Serangoon North",
    "address": "Blk 542B Serangoon North Ave 3 #02-01",
    "postal": "552542",
    "latitude": 1.37368393,
    "longitude": 103.87141700000001
  },
  {
    "index": 253,
    "name": "Prime Yishun Ave 6",
    "address": "Blk 461 Yishun Ave 6 #01-01",
    "postal": "760461",
    "latitude": 1.428414719,
    "longitude": 103.8499728
  },
  {
    "index": 254,
    "name": "Rangoon Provision Shop",
    "address": "681 Race Course Road #01-309",
    "postal": "210681",
    "latitude": 1.313720674,
    "longitude": 103.8552727
  },
  {
    "index": 255,
    "name": "S E Store",
    "address": "Blk 352 Jurong East St 31 #01-121",
    "postal": "600352",
    "latitude": 1.344922895,
    "longitude": 103.7304008
  },
  {
    "index": 256,
    "name": "Seah Geok Eng Agency",
    "address": "Blk 118 Rivervale Dr Rivervale Plaza #01-15",
    "postal": "540118",
    "latitude": 1.3855530969999998,
    "longitude": 103.9019607
  },
  {
    "index": 257,
    "name": "Seah Geok Eng Upper Serangoon View",
    "address": "Blk 476D Upper Serangoon View #02-02",
    "postal": "537476",
    "latitude": 1.377915061,
    "longitude": 103.9036238
  },
  {
    "index": 258,
    "name": "Seah Koon Huat",
    "address": "Blk 11A Boon Tiong Rd #01-10",
    "postal": "161011",
    "latitude": 1.286365781,
    "longitude": 103.8287899
  },
  {
    "index": 259,
    "name": "Seah Koon Huat",
    "address": "Blk 116 Bukit Merah View #01-233",
    "postal": "151116",
    "latitude": 1.285134271,
    "longitude": 103.82153220000001
  },
  {
    "index": 260,
    "name": "Seng Yeok Chan Agency",
    "address": "Blk 338 Ang Mo Kio Ave 1 #01-1657",
    "postal": "560338",
    "latitude": 1.363895702,
    "longitude": 103.848987
  },
  {
    "index": 261,
    "name": "Sheng Moh Fruits & Provision Store",
    "address": "29 Jalan Mas Puteh",
    "postal": "128632",
    "latitude": 1.308368395,
    "longitude": 103.762108
  },
  {
    "index": 262,
    "name": "Sheng Siong Junction 9",
    "address": "18 Yishun Avenue 9 #02-05 to #02-10 Junction 9",
    "postal": "768897",
    "latitude": 1.433060217,
    "longitude": 103.84164940000001
  },
  {
    "index": 263,
    "name": "Sheng Siong Marsiling Mall",
    "address": "Blk 4 Woodlands Street 12 #02-61",
    "postal": "738623",
    "latitude": 1.433512535,
    "longitude": 103.7797469
  },
  {
    "index": 264,
    "name": "Sheng Siong Tanglin Halt",
    "address": "Blk 88 Tanglin Halt Rd #01-10",
    "postal": "141088",
    "latitude": 1.301864727,
    "longitude": 103.7981743
  },
  {
    "index": 265,
    "name": "Soh Choo Trading",
    "address": "Blk 19 Marsiling Lane #01-303",
    "postal": "730019",
    "latitude": 1.4432820430000002,
    "longitude": 103.7772942
  },
  {
    "index": 266,
    "name": "Springdale Garments Co",
    "address": "Blk 408 Ang Mo Kio Ave 10 #01-795",
    "postal": "560408",
    "latitude": 1.362090535,
    "longitude": 103.8545878
  },
  {
    "index": 267,
    "name": "Superbowl Jurong Pte Ltd",
    "address": "3 Yuan Ching Road",
    "postal": "618642",
    "latitude": 1.325474088,
    "longitude": 103.72524770000001
  },
  {
    "index": 268,
    "name": "Tampines Trading",
    "address": "Blk 828 Tampines St 81 #01-234",
    "postal": "520828",
    "latitude": 1.348930841,
    "longitude": 103.9345881
  },
  {
    "index": 269,
    "name": "Tampines Trading 824",
    "address": "Blk 824 Tampines St 81 #01-14",
    "postal": "520824",
    "latitude": 1.349037435,
    "longitude": 103.93271490000001
  },
  {
    "index": 270,
    "name": "Tan Ah Leck Trading",
    "address": "Blk 151 Bukit Batok Street 11 #01-254",
    "postal": "650151",
    "latitude": 1.348747035,
    "longitude": 103.7442115
  },
  {
    "index": 271,
    "name": "Tan Boon Tin Agency",
    "address": "Blk 56 Marine Terrace #01-253",
    "postal": "440056",
    "latitude": 1.305605694,
    "longitude": 103.91537609999999
  },
  {
    "index": 272,
    "name": "Tan Kai Huat Provision Shop",
    "address": "Blk 123 Hougang Ave 1 #01-1408",
    "postal": "530123",
    "latitude": 1.353383139,
    "longitude": 103.8862589
  },
  {
    "index": 273,
    "name": "Tan Wee Fong Trading",
    "address": "Blk 24 Bendemeer Rd #01-529",
    "postal": "330024",
    "latitude": 1.318623478,
    "longitude": 103.8623244
  },
  {
    "index": 274,
    "name": "Tay Ah Tho Trading",
    "address": "Blk 768 Woodlands Ave 6 Woodlands Mart #01-21",
    "postal": "730768",
    "latitude": 1.44564787,
    "longitude": 103.7981623
  },
  {
    "index": 275,
    "name": "Tay Sui Lan Agency",
    "address": "11 Collyer Quay The Arcade #02-13",
    "postal": "049317",
    "latitude": 1.283619823,
    "longitude": 103.8520589
  },
  {
    "index": 276,
    "name": "Teo Khar Bee Agency",
    "address": "Blk 84 Redhill Lane #01-356",
    "postal": "150084",
    "latitude": 1.287085751,
    "longitude": 103.81885109999999
  },
  {
    "index": 277,
    "name": "Teo Sook Cheng Agency",
    "address": "Blk 293 Yishun St 22 #01-225",
    "postal": "760293",
    "latitude": 1.436114254,
    "longitude": 103.8376052
  },
  {
    "index": 278,
    "name": "Tong Aik Huat",
    "address": "Blk 685 Hougang St 61 #01-160",
    "postal": "530685",
    "latitude": 1.375180927,
    "longitude": 103.88602270000001
  },
  {
    "index": 279,
    "name": "Tuck Lee Long",
    "address": "Blk 159 Ang Mo Kio Ave 4 #01-536",
    "postal": "560159",
    "latitude": 1.3747989319999998,
    "longitude": 103.83985809999999
  },
  {
    "index": 280,
    "name": "U Stars Sumang Walk",
    "address": "Blk 218 Sumang Walk #01-01",
    "postal": "820218",
    "latitude": 1.403227125,
    "longitude": 103.895387
  },
  {
    "index": 281,
    "name": "U Stars Supermarket Keat Hong Link",
    "address": "Blk 817 Keat Hong Link, #01-14",
    "postal": "680817",
    "latitude": 1.37754385,
    "longitude": 103.7497
  },
  {
    "index": 282,
    "name": "Uni-Foto Pte Ltd",
    "address": "400 Orchard Rd Orchard Towers #B1-11",
    "postal": "238875",
    "latitude": 1.3069826409999998,
    "longitude": 103.8293308
  },
  {
    "index": 283,
    "name": "Vitatron & Medical Co",
    "address": "60 Smith St",
    "postal": "058963",
    "latitude": 1.282943629,
    "longitude": 103.84332890000002
  },
  {
    "index": 284,
    "name": "Wanrise Trading",
    "address": "Blk 47 Sims Place #01-177",
    "postal": "380047",
    "latitude": 1.317941213,
    "longitude": 103.8790254
  },
  {
    "index": 285,
    "name": "Warriors Football Club",
    "address": "Blk 1 Jalan Bukit Merah #01-4510",
    "postal": "150001",
    "latitude": 1.28645354,
    "longitude": 103.80824240000001
  },
  {
    "index": 286,
    "name": "Wong Teck Chow Enterprise (Pte) Ltd",
    "address": "390 Victoria St #01-33 Village Hotel Bugis",
    "postal": "188061",
    "latitude": 1.301912936,
    "longitude": 103.8577822
  },
  {
    "index": 287,
    "name": "Xie Sheng Dept Service Co",
    "address": "Blk 632 Bedok Reservoir Rd #01-820",
    "postal": "470632",
    "latitude": 1.3320509459999998,
    "longitude": 103.91414509999998
  },
  {
    "index": 288,
    "name": "Yeo Soon Huat",
    "address": "Blk 70 Lor 4 Toa Payoh #01-347",
    "postal": "310070",
    "latitude": 1.334448749,
    "longitude": 103.8523333
  }
]